[{"h3_12_4M":"8c208091d6cedff","lat":38.2334862,"lon":70.5383205,"hours":null,"location_details":null,"address":null,"url":null,"type":null,"city2":"Qal‘ah-ye Kūf","state2":"Badakhshan","country2":"Afghanistan"},{"h3_12_4M":"8c2080b70d5edff","lat":38.4002948,"lon":71.1314535,"hours":null,"location_details":null,"address":null,"url":null,"type":"pitlatrine","city2":"Māymay","state2":"Badakhshan","country2":"Afghanistan"},{"h3_12_4M":"8c2080b74824bff","lat":38.4206631,"lon":71.108068,"hours":null,"location_details":null,"address":null,"url":null,"type":null,"city2":"Māymay","state2":"Badakhshan","country2":"Afghanistan"},{"h3_12_4M":"8c20821763085ff","lat":36.8306379,"lon":70.854561,"hours":null,"location_details":null,"address":null,"url":null,"type":null,"city2":"Jurm","state2":"Badakhshan","country2":"Afghanistan"},{"h3_12_4M":"8c20828d8a4abff","lat":36.896785,"lon":70.8325345,"hours":null,"location_details":null,"address":null,"url":null,"type":null,"city2":"Jurm","state2":"Badakhshan","country2":"Afghanistan"},{"h3_12_4M":"8c20829098441ff","lat":37.1409992,"lon":70.5213991,"hours":null,"location_details":null,"address":null,"url":null,"type":null,"city2":"Fayzabad","state2":"Badakhshan","country2":"Afghanistan"},{"h3_12_4M":"8c20829098641ff","lat":37.1418702,"lon":70.5203744,"hours":null,"location_details":null,"address":null,"url":null,"type":null,"city2":"Fayzabad","state2":"Badakhshan","country2":"Afghanistan"},{"h3_12_4M":"8c208309e2f09ff","lat":36.9823248,"lon":72.2628006,"hours":null,"location_details":null,"address":null,"url":null,"type":"pitlatrine","city2":"Khandūd","state2":"Badakhshan","country2":"Afghanistan"},{"h3_12_4M":"8c20834057ae1ff","lat":36.8204353,"lon":72.0348777,"hours":null,"location_details":null,"address":null,"url":null,"type":"pitlatrine","city2":"Khandūd","state2":"Badakhshan","country2":"Afghanistan"},{"h3_12_4M":"8c2083a09daa3ff","lat":37.627398,"lon":72.5461404,"hours":null,"location_details":null,"address":null,"url":null,"type":null,"city2":"Khandūd","state2":"Badakhshan","country2":"Afghanistan"},{"h3_12_4M":"8c2084699444bff","lat":37.9033744,"lon":70.1688353,"hours":null,"location_details":null,"address":null,"url":null,"type":null,"city2":"Deh Khwāhān","state2":"Badakhshan","country2":"Afghanistan"},{"h3_12_4M":"8c20854ae6631ff","lat":38.4640076,"lon":70.8658489,"hours":null,"location_details":null,"address":null,"url":null,"type":null,"city2":"Nūsay","state2":"Badakhshan","country2":"Afghanistan"},{"h3_12_4M":"8c20905b4300dff","lat":34.5320182,"lon":69.1687717,"hours":null,"location_details":null,"address":null,"url":null,"type":null,"city2":"Kabul","state2":"Kabul","country2":"Afghanistan"},{"h3_12_4M":"8c20905b4ad5bff","lat":34.5347421,"lon":69.1685593,"hours":null,"location_details":null,"address":null,"url":null,"type":null,"city2":"Kabul","state2":"Kabul","country2":"Afghanistan"},{"h3_12_4M":"8c2093c622e5dff","lat":34.438324,"lon":70.4375899,"hours":null,"location_details":null,"address":null,"url":null,"type":null,"city2":"Jalālābād","state2":"Nangarhar","country2":"Afghanistan"},{"h3_12_4M":"8c2094a60932bff","lat":36.1392004,"lon":68.7079315,"hours":null,"location_details":null,"address":null,"url":null,"type":null,"city2":"Baghlān","state2":"Baghlan","country2":"Afghanistan"},{"h3_12_4M":"8c2094ad522e5ff","lat":35.8877976,"lon":68.7517473,"hours":null,"location_details":null,"address":null,"url":null,"type":null,"city2":"Pul-e Khumrī","state2":"Baghlan","country2":"Afghanistan"},{"h3_12_4M":"8c209625a50b7ff","lat":34.5342664,"lon":69.1321231,"hours":null,"location_details":null,"address":null,"url":null,"type":null,"city2":"Kabul","state2":"Kabul","country2":"Afghanistan"},{"h3_12_4M":"8c20962e86419ff","lat":34.5019522,"lon":69.1224341,"hours":null,"location_details":null,"address":null,"url":null,"type":null,"city2":"Kabul","state2":"Kabul","country2":"Afghanistan"},{"h3_12_4M":"8c20969502eddff","lat":34.8967411,"lon":68.038043,"hours":null,"location_details":null,"address":null,"url":null,"type":null,"city2":"Bulōlah","state2":"Bamyan","country2":"Afghanistan"},{"h3_12_4M":"8c209ca1366edff","lat":36.3853416,"lon":72.369405,"hours":null,"location_details":null,"address":null,"url":null,"type":null,"city2":"Khandūd","state2":"Badakhshan","country2":"Afghanistan"},{"h3_12_4M":"8c20b04b42e47ff","lat":36.7574659,"lon":66.8972379,"hours":null,"location_details":null,"address":null,"url":null,"type":null,"city2":"Balkh","state2":"Balkh","country2":"Afghanistan"},{"h3_12_4M":"8c20b226bac95ff","lat":36.3943422,"lon":67.9428515,"hours":null,"location_details":null,"address":null,"url":null,"type":null,"city2":"Aībak","state2":"Samangan","country2":"Afghanistan"},{"h3_12_4M":"8c20b2b2058c5ff","lat":36.7111492,"lon":67.1088843,"hours":null,"location_details":null,"address":null,"url":null,"type":null,"city2":"Mazār-e Sharīf","state2":"Balkh","country2":"Afghanistan"},{"h3_12_4M":"8c20b2b23a503ff","lat":36.7178909,"lon":67.1477307,"hours":null,"location_details":null,"address":null,"url":null,"type":null,"city2":"Mazār-e Sharīf","state2":"Balkh","country2":"Afghanistan"},{"h3_12_4M":"8c20b2b23a58dff","lat":36.7181199,"lon":67.1488734,"hours":null,"location_details":null,"address":null,"url":null,"type":null,"city2":"Mazār-e Sharīf","state2":"Balkh","country2":"Afghanistan"},{"h3_12_4M":"8c20b3388741bff","lat":36.7466679,"lon":68.8685435,"hours":null,"location_details":null,"address":null,"url":null,"type":null,"city2":"Kunduz","state2":"Kunduz","country2":"Afghanistan"},{"h3_12_4M":"8c20b35a2b161ff","lat":36.2900182,"lon":68.00841,"hours":null,"location_details":null,"address":null,"url":null,"type":null,"city2":"Aībak","state2":"Samangan","country2":"Afghanistan"},{"h3_12_4M":"8c20b361b0619ff","lat":36.3542296,"lon":68.8551056,"hours":null,"location_details":null,"address":null,"url":null,"type":null,"city2":"‘Alīābād","state2":"Kunduz","country2":"Afghanistan"},{"h3_12_4M":"8c20b367230a3ff","lat":36.4592075,"lon":68.8891,"hours":null,"location_details":null,"address":null,"url":null,"type":null,"city2":"‘Alīābād","state2":"Kunduz","country2":"Afghanistan"},{"h3_12_4M":"8c20b36818705ff","lat":36.2664884,"lon":68.7940317,"hours":null,"location_details":null,"address":null,"url":null,"type":null,"city2":"Baghlān","state2":"Baghlan","country2":"Afghanistan"},{"h3_12_4M":"8c20b3682b025ff","lat":36.2332444,"lon":68.7730193,"hours":null,"location_details":null,"address":null,"url":null,"type":null,"city2":"Baghlān","state2":"Baghlan","country2":"Afghanistan"},{"h3_12_4M":"8c20b36900d9bff","lat":36.1868816,"lon":68.7520552,"hours":null,"location_details":null,"address":null,"url":null,"type":null,"city2":"Baghlān","state2":"Baghlan","country2":"Afghanistan"},{"h3_12_4M":"8c20b3692b863ff","lat":36.1722971,"lon":68.746271,"hours":null,"location_details":null,"address":null,"url":null,"type":null,"city2":"Baghlān","state2":"Baghlan","country2":"Afghanistan"},{"h3_12_4M":"8c20b36abca39ff","lat":36.289174,"lon":68.8138251,"hours":null,"location_details":null,"address":null,"url":null,"type":null,"city2":"Baghlān","state2":"Baghlan","country2":"Afghanistan"},{"h3_12_4M":"8c20b3a05a1b7ff","lat":37.1838263,"lon":68.6167565,"hours":null,"location_details":null,"address":null,"url":null,"type":null,"city2":"Qarāwul","state2":"Kunduz","country2":"Afghanistan"},{"h3_12_4M":"8c20b3a05aea5ff","lat":37.1839454,"lon":68.6191309,"hours":null,"location_details":null,"address":null,"url":null,"type":null,"city2":"Qarāwul","state2":"Kunduz","country2":"Afghanistan"},{"h3_12_4M":"8c20b3c91ad5bff","lat":36.4643114,"lon":67.8897652,"hours":null,"location_details":null,"address":null,"url":null,"type":null,"city2":"Aībak","state2":"Samangan","country2":"Afghanistan"},{"h3_12_4M":"8c426516b8435ff","lat":33.5474417,"lon":68.4249839,"hours":null,"location_details":null,"address":null,"url":null,"type":null,"city2":"Ghazni","state2":"Ghazni","country2":"Afghanistan"},{"h3_12_4M":"8c426516b8465ff","lat":33.5475557,"lon":68.4241095,"hours":null,"location_details":null,"address":null,"url":null,"type":null,"city2":"Ghazni","state2":"Ghazni","country2":"Afghanistan"},{"h3_12_4M":"8c426516b9409ff","lat":33.5498045,"lon":68.421023,"hours":null,"location_details":null,"address":null,"url":null,"type":null,"city2":"Ghazni","state2":"Ghazni","country2":"Afghanistan"},{"h3_12_4M":"8c426516b95a7ff","lat":33.5480442,"lon":68.4223165,"hours":null,"location_details":null,"address":null,"url":null,"type":null,"city2":"Ghazni","state2":"Ghazni","country2":"Afghanistan"},{"h3_12_4M":"8c434909169d9ff","lat":34.8227034,"lon":67.18446,"hours":null,"location_details":null,"address":null,"url":null,"type":null,"city2":"Bāzār-e Yakāwlang","state2":"Bamyan","country2":"Afghanistan"},{"h3_12_4M":"8c434bc56b141ff","lat":33.8513732,"lon":66.7887129,"hours":null,"location_details":null,"address":null,"url":null,"type":null,"city2":"Quchanghī","state2":"Daykundi","country2":"Afghanistan"},{"h3_12_4M":"8c436a3316857ff","lat":35.7312899,"lon":63.7823993,"hours":null,"location_details":null,"address":null,"url":null,"type":null,"city2":"Ghormach","state2":"Badghis","country2":"Afghanistan"}]