[{"h3_12_4M":"8c68105a20643ff","lat":5.0260783,"lon":115.069364,"hours":"Mo-Su 07:00-21:00","location_details":null,"address":null,"url":null,"type":"flush","city2":"Serasa","state2":"Brunei-Muara District","country2":"Brunei Darussalam"},{"h3_12_4M":"8c68105b5c849ff","lat":5.0170257,"lon":115.0363268,"hours":"Mo-Su 06:30-21:00","location_details":null,"address":null,"url":null,"type":"flush","city2":"Kapok","state2":"Brunei-Muara District","country2":"Brunei Darussalam"},{"h3_12_4M":"8c681280c4c51ff","lat":4.6887624,"lon":115.0388951,"hours":null,"location_details":null,"address":null,"url":null,"type":null,"city2":"Bangar","state2":"Temburong","country2":"Brunei Darussalam"},{"h3_12_4M":"8c68129215803ff","lat":4.85491325,"lon":114.89042574999999,"hours":null,"location_details":null,"address":null,"url":null,"type":null,"city2":"Lumapas","state2":null,"country2":"Brunei Darussalam"},{"h3_12_4M":"8c6812924a1e7ff","lat":4.879452,"lon":114.8677087,"hours":"Mo-Su 06:30-22:00","location_details":null,"address":null,"url":null,"type":"flush","city2":"Kampong Beribi","state2":null,"country2":"Brunei Darussalam"},{"h3_12_4M":"8c681629b3631ff","lat":4.8500902,"lon":114.8434271,"hours":null,"location_details":null,"address":null,"url":null,"type":null,"city2":"Kampong Mulaut","state2":null,"country2":"Brunei Darussalam"},{"h3_12_4M":"8c681629d768dff","lat":4.8814781,"lon":114.8316991,"hours":"Mo-Su 06:00-22:00","location_details":null,"address":null,"url":null,"type":"flush","city2":"Sengkurong","state2":"Brunei-Muara District","country2":"Brunei Darussalam"},{"h3_12_4M":"8c68162abaa45ff","lat":4.9556528,"lon":114.8508983,"hours":null,"location_details":null,"address":null,"url":null,"type":null,"city2":"Kampong Jerudong","state2":"Brunei-Muara District","country2":"Brunei Darussalam"},{"h3_12_4M":"8c68162abcf19ff","lat":4.9493263,"lon":114.8408666,"hours":"Mo-Su 06:30-22:00","location_details":null,"address":null,"url":null,"type":"flush","city2":"Kampong Jerudong","state2":"Brunei-Muara District","country2":"Brunei Darussalam"},{"h3_12_4M":"8c68162c285a5ff","lat":4.9397484,"lon":114.9403031,"hours":null,"location_details":null,"address":null,"url":null,"type":"flush","city2":"Kampong Meragang","state2":null,"country2":"Brunei Darussalam"},{"h3_12_4M":"8c68162c2ba67ff","lat":4.94004,"lon":114.9413352,"hours":null,"location_details":null,"address":null,"url":null,"type":null,"city2":"Kampong Meragang","state2":null,"country2":"Brunei Darussalam"},{"h3_12_4M":"8c68162c3844dff","lat":4.9470384,"lon":114.9609086,"hours":null,"location_details":null,"address":null,"url":null,"type":"flush","city2":"Kampong Lambak A","state2":"Brunei-Muara District","country2":"Brunei Darussalam"},{"h3_12_4M":"8c68162c54d83ff","lat":4.9659299,"lon":114.9515657,"hours":"Mo-Su 06:00-00:00","location_details":null,"address":null,"url":null,"type":"flush","city2":"Kampong Lambak A","state2":"Brunei-Muara District","country2":"Brunei Darussalam"},{"h3_12_4M":"8c68162c9c6d1ff","lat":4.9566132,"lon":115.0208611,"hours":"Mo-Su 06:30-21:30","location_details":null,"address":null,"url":null,"type":"flush","city2":"Perumahan Negara Panchor","state2":null,"country2":"Brunei Darussalam"},{"h3_12_4M":"8c68162d03aa7ff","lat":4.9047171,"lon":114.9177889,"hours":null,"location_details":null,"address":null,"url":null,"type":null,"city2":"Kampong Gadong","state2":"Brunei-Muara District","country2":"Brunei Darussalam"},{"h3_12_4M":"8c68162d094bbff","lat":4.9166123,"lon":114.9113944,"hours":null,"location_details":null,"address":null,"url":null,"type":null,"city2":"Kampong Gadong","state2":"Brunei-Muara District","country2":"Brunei Darussalam"},{"h3_12_4M":"8c68162d1cb2dff","lat":4.9087332,"lon":114.9227784,"hours":"Mo-Su 07:00-22:00","location_details":null,"address":null,"url":null,"type":"flush","city2":"Kampong Gadong","state2":"Brunei-Muara District","country2":"Brunei Darussalam"},{"h3_12_4M":"8c68162d1d985ff","lat":4.9100854,"lon":114.9224786,"hours":"Mo-Su 06:00-22:00","location_details":null,"address":null,"url":null,"type":"flush","city2":"Kampong Gadong","state2":"Brunei-Muara District","country2":"Brunei Darussalam"},{"h3_12_4M":"8c68162d345c9ff","lat":4.8827307,"lon":114.9245686,"hours":null,"location_details":null,"address":null,"url":null,"type":null,"city2":"Kampong Kiajong","state2":"Brunei-Muara District","country2":"Brunei Darussalam"},{"h3_12_4M":"8c68162de4199ff","lat":4.8868522,"lon":114.9434793,"hours":null,"location_details":null,"address":null,"url":null,"type":null,"city2":"Bandar Seri Begawan","state2":"Brunei-Muara District","country2":"Brunei Darussalam"},{"h3_12_4M":"8c68162de5863ff","lat":4.886926,"lon":114.9393806,"hours":null,"location_details":null,"address":null,"url":null,"type":null,"city2":"Bandar Seri Begawan","state2":"Brunei-Muara District","country2":"Brunei Darussalam"},{"h3_12_4M":"8c68162de5899ff","lat":4.8872381,"lon":114.9411213,"hours":null,"location_details":"Premium Restroom","address":null,"url":null,"type":"flush","city2":"Bandar Seri Begawan","state2":"Brunei-Muara District","country2":"Brunei Darussalam"},{"h3_12_4M":"8c68162de8037ff","lat":4.9020267,"lon":114.9448893,"hours":null,"location_details":null,"address":null,"url":null,"type":null,"city2":"Bandar Seri Begawan","state2":"Brunei-Muara District","country2":"Brunei Darussalam"},{"h3_12_4M":"8c68162eadb23ff","lat":4.9813026,"lon":114.962978,"hours":null,"location_details":null,"address":null,"url":null,"type":null,"city2":"Sungai Hanching","state2":"Brunei-Muara District","country2":"Brunei Darussalam"},{"h3_12_4M":"8c68162eb5b55ff","lat":4.9795037,"lon":114.9871991,"hours":"Mo-Su 06:30-22:00","location_details":null,"address":null,"url":null,"type":"flush","city2":"Salambigar","state2":"Brunei-Muara District","country2":"Brunei Darussalam"},{"h3_12_4M":"8c681648a4e3dff","lat":4.5832029,"lon":114.1998806,"hours":null,"location_details":null,"address":null,"url":null,"type":null,"city2":"Kampung Sungai Teraban","state2":"Belait","country2":"Brunei Darussalam"},{"h3_12_4M":"8c681662d999dff","lat":4.8062619,"lon":114.6375565,"hours":null,"location_details":null,"address":null,"url":null,"type":null,"city2":"Tutong","state2":"Tutong","country2":"Brunei Darussalam"},{"h3_12_4M":"8c681664a25a1ff","lat":4.7367286,"lon":114.8115737,"hours":null,"location_details":null,"address":null,"url":null,"type":"flush","city2":"Pengkalan Batu","state2":null,"country2":"Brunei Darussalam"},{"h3_12_4M":"8c681664bc8abff","lat":4.7409687,"lon":114.8134363,"hours":null,"location_details":null,"address":null,"url":null,"type":null,"city2":"Pengkalan Batu","state2":null,"country2":"Brunei Darussalam"}]