[{"h3_12_4M":"8c6d6646eb71dff","lat":13.5289851,"lon":-88.0670048,"hours":null,"location_details":null,"address":null,"url":null,"type":null,"city2":"Jocoro","state2":"Morazán","country2":"El Salvador"},{"h3_12_4M":"8c6d664e4755bff","lat":13.5200406,"lon":-88.2324897,"hours":null,"location_details":null,"address":null,"url":null,"type":null,"city2":"Moncagua","state2":"San Miguel Department","country2":"El Salvador"},{"h3_12_4M":"8c6d66619ccabff","lat":13.2020302,"lon":-88.0553409,"hours":null,"location_details":null,"address":null,"url":null,"type":null,"city2":"Intipucá","state2":"La Unión","country2":"El Salvador"},{"h3_12_4M":"8c6d666f6a985ff","lat":13.1727736,"lon":-88.1087306,"hours":null,"location_details":null,"address":null,"url":null,"type":null,"city2":"Chirilagua","state2":"San Miguel Department","country2":"El Salvador"},{"h3_12_4M":"8c6d6676a6839ff","lat":13.3074492,"lon":-87.8627906,"hours":null,"location_details":null,"address":null,"url":null,"type":null,"city2":"Conchagua","state2":"La Unión","country2":"El Salvador"},{"h3_12_4M":"8c6d6676ea1d1ff","lat":13.337455,"lon":-87.8429808,"hours":null,"location_details":null,"address":null,"url":null,"type":null,"city2":"La Unión","state2":"La Unión","country2":"El Salvador"},{"h3_12_4M":"8c6d74008bb37ff","lat":13.8370871,"lon":-89.6266803,"hours":null,"location_details":null,"address":null,"url":null,"type":null,"city2":"Izalco","state2":"Sonsonate Department","country2":"El Salvador"},{"h3_12_4M":"8c6d740b286b3ff","lat":13.8703802,"lon":-89.8512354,"hours":null,"location_details":null,"address":null,"url":null,"type":null,"city2":"Concepción de Ataco","state2":"Ahuachapán","country2":"El Salvador"},{"h3_12_4M":"8c6d7411a9935ff","lat":13.9852831,"lon":-89.6810748,"hours":null,"location_details":null,"address":null,"url":null,"type":null,"city2":"Chalchuapa","state2":"Santa Ana Department","country2":"El Salvador"},{"h3_12_4M":"8c6d741729099ff","lat":13.9922009,"lon":-89.5577429,"hours":null,"location_details":null,"address":null,"url":null,"type":null,"city2":"Santa Ana","state2":"Santa Ana Department","country2":"El Salvador"},{"h3_12_4M":"8c6d74186cc19ff","lat":13.995767,"lon":-89.7997094,"hours":null,"location_details":null,"address":null,"url":null,"type":null,"city2":"Atiquizaya","state2":"Ahuachapán","country2":"El Salvador"},{"h3_12_4M":"8c6d743641951ff","lat":13.6747362,"lon":-89.2797345,"hours":null,"location_details":null,"address":null,"url":null,"type":null,"city2":"Santa Tecla","state2":"La Libertad Department","country2":"El Salvador"},{"h3_12_4M":"8c6d743641957ff","lat":13.6747389,"lon":-89.2797766,"hours":null,"location_details":null,"address":null,"url":null,"type":null,"city2":"Santa Tecla","state2":"La Libertad Department","country2":"El Salvador"},{"h3_12_4M":"8c6d7436452c5ff","lat":13.6760305,"lon":-89.2832119,"hours":null,"location_details":null,"address":null,"url":null,"type":null,"city2":"Santa Tecla","state2":"La Libertad Department","country2":"El Salvador"},{"h3_12_4M":"8c6d74364c5e1ff","lat":13.6769775,"lon":-89.2792814,"hours":null,"location_details":null,"address":null,"url":null,"type":null,"city2":"Santa Tecla","state2":"La Libertad Department","country2":"El Salvador"},{"h3_12_4M":"8c6d74a758861ff","lat":13.8740688,"lon":-89.139894,"hours":null,"location_details":null,"address":null,"url":null,"type":"pitlatrine","city2":"Guazapa","state2":"San Salvador Department","country2":"El Salvador"},{"h3_12_4M":"8c6d74ac8ae81ff","lat":13.7003416,"lon":-89.2422411,"hours":null,"location_details":null,"address":null,"url":null,"type":null,"city2":"Antiguo Cuscatlán","state2":"La Libertad Department","country2":"El Salvador"},{"h3_12_4M":"8c6d74ac93a8dff","lat":13.6845896,"lon":-89.2316466,"hours":null,"location_details":null,"address":null,"url":null,"type":null,"city2":"Antiguo Cuscatlán","state2":"La Libertad Department","country2":"El Salvador"},{"h3_12_4M":"8c6d74ad96197ff","lat":13.6773518,"lon":-89.2978547,"hours":null,"location_details":null,"address":null,"url":null,"type":"flush","city2":"Santa Tecla","state2":"La Libertad Department","country2":"El Salvador"},{"h3_12_4M":"8c6d74af67163ff","lat":13.8102886,"lon":-89.3306458,"hours":null,"location_details":null,"address":null,"url":null,"type":null,"city2":"Quezaltepeque","state2":"La Libertad Department","country2":"El Salvador"},{"h3_12_4M":"8c6d75ba180e1ff","lat":13.3821943,"lon":-88.5056838,"hours":null,"location_details":null,"address":null,"url":null,"type":null,"city2":"Ozatlán","state2":"Usulután","country2":"El Salvador"},{"h3_12_4M":"8c6d75c614857ff","lat":13.504757699999999,"lon":-88.8970612,"hours":null,"location_details":null,"address":null,"url":null,"type":null,"city2":"Zacatecoluca","state2":"La Paz Department","country2":"El Salvador"},{"h3_12_4M":"8c6d75c626693ff","lat":13.5019512,"lon":-88.9238555,"hours":null,"location_details":null,"address":null,"url":null,"type":null,"city2":"Santiago Nonualco","state2":"La Paz Department","country2":"El Salvador"},{"h3_12_4M":"8c6d75ce224bdff","lat":13.4431864,"lon":-89.0629959,"hours":null,"location_details":null,"address":null,"url":null,"type":null,"city2":"El Rosario","state2":"La Paz Department","country2":"El Salvador"},{"h3_12_4M":"8c6d75d9d4731ff","lat":13.6116581,"lon":-89.1793278,"hours":null,"location_details":null,"address":null,"url":null,"type":"flush","city2":"Panchimalco","state2":"San Salvador Department","country2":"El Salvador"},{"h3_12_4M":"8c6d75da0744dff","lat":13.703553,"lon":-89.1353249,"hours":null,"location_details":null,"address":null,"url":null,"type":"flush","city2":"Soyapango","state2":"San Salvador Department","country2":"El Salvador"},{"h3_12_4M":"8c6d75da204edff","lat":13.6983278,"lon":-89.1524753,"hours":null,"location_details":null,"address":null,"url":null,"type":null,"city2":"Soyapango","state2":"San Salvador Department","country2":"El Salvador"},{"h3_12_4M":"8c6d75da206e3ff","lat":13.6992169,"lon":-89.1516803,"hours":null,"location_details":null,"address":null,"url":null,"type":null,"city2":"Soyapango","state2":"San Salvador Department","country2":"El Salvador"},{"h3_12_4M":"8c6d75da23265ff","lat":13.6983134,"lon":-89.1502006,"hours":null,"location_details":null,"address":null,"url":null,"type":null,"city2":"Soyapango","state2":"San Salvador Department","country2":"El Salvador"},{"h3_12_4M":"8c6d75da23301ff","lat":13.6980874,"lon":-89.1509006,"hours":null,"location_details":null,"address":null,"url":null,"type":null,"city2":"Soyapango","state2":"San Salvador Department","country2":"El Salvador"},{"h3_12_4M":"8c6d75da2a991ff","lat":13.6987647,"lon":-89.1499341,"hours":null,"location_details":null,"address":null,"url":null,"type":null,"city2":"Soyapango","state2":"San Salvador Department","country2":"El Salvador"},{"h3_12_4M":"8c6d75da6628bff","lat":13.7154958,"lon":-89.1534959,"hours":null,"location_details":null,"address":null,"url":null,"type":null,"city2":"Soyapango","state2":"San Salvador Department","country2":"El Salvador"}]