[{"h3_12_4M":"8c5f09452b83dff","lat":6.7752428,"lon":-58.1687557,"hours":null,"location_details":null,"address":null,"url":null,"type":null,"city2":"Georgetown","state2":"Demerara-Mahaica","country2":"Guyana"},{"h3_12_4M":"8c5f09cda8adbff","lat":6.503164,"lon":-58.2142776,"hours":null,"location_details":null,"address":null,"url":null,"type":null,"city2":"Vreed-en-Hoop","state2":"Essequibo Islands-West Demerara","country2":"Guyana"},{"h3_12_4M":"8c5f0c79c6a27ff","lat":5.3150678,"lon":-57.3387797,"hours":null,"location_details":null,"address":null,"url":null,"type":null,"city2":"Skeldon","state2":"East Berbice-Corentyne","country2":"Guyana"},{"h3_12_4M":"8c5f0e36b9837ff","lat":5.7496746,"lon":-57.1347145,"hours":null,"location_details":null,"address":null,"url":null,"type":null,"city2":"Skeldon","state2":"East Berbice-Corentyne","country2":"Guyana"},{"h3_12_4M":"8c5f29418d569ff","lat":3.9711669,"lon":-59.1290662,"hours":null,"location_details":null,"address":null,"url":null,"type":null,"city2":"Lethem","state2":"Upper Takutu-Upper Essequibo","country2":"Guyana"},{"h3_12_4M":"8c5f299554415ff","lat":3.3740307,"lon":-59.7939033,"hours":null,"location_details":null,"address":null,"url":null,"type":null,"city2":"Lethem","state2":"Upper Takutu-Upper Essequibo","country2":"Guyana"},{"h3_12_4M":"8c5f2b3931321ff","lat":4.66409,"lon":-58.6675543,"hours":null,"location_details":null,"address":null,"url":null,"type":null,"city2":"Mahdia","state2":"Potaro-Siparuni","country2":"Guyana"}]