[{"h3_12_4M":"8c1ec21031309ff","lat":41.382056,"lon":22.8168595,"hours":null,"location_details":null,"address":null,"url":null,"type":null,"city2":"Sušica","state2":"Novo Selo","country2":"Macedonia"},{"h3_12_4M":"8c1ec21095959ff","lat":41.3706978,"lon":22.8996987,"hours":null,"location_details":null,"address":null,"url":null,"type":"pitlatrine","city2":"Novo Selo","state2":"Novo Selo","country2":"Macedonia"},{"h3_12_4M":"8c1ec219bab47ff","lat":41.1862997,"lon":22.7223906,"hours":null,"location_details":null,"address":null,"url":null,"type":"chemical","city2":"Star Dojran","state2":"Dojran","country2":"Macedonia"},{"h3_12_4M":"8c1ec2546303bff","lat":41.1269841,"lon":22.5524896,"hours":null,"location_details":null,"address":null,"url":null,"type":null,"city2":"Stojakovo","state2":"Bogdanci","country2":"Macedonia"},{"h3_12_4M":"8c1ec2546a991ff","lat":41.1289328,"lon":22.550756,"hours":null,"location_details":null,"address":null,"url":null,"type":null,"city2":"Stojakovo","state2":"Bogdanci","country2":"Macedonia"},{"h3_12_4M":"8c1ec2546a997ff","lat":41.1287745,"lon":22.5507817,"hours":null,"location_details":null,"address":null,"url":null,"type":null,"city2":"Stojakovo","state2":"Bogdanci","country2":"Macedonia"},{"h3_12_4M":"8c1ec2571ca31ff","lat":41.1487736,"lon":22.5150649,"hours":null,"location_details":null,"address":null,"url":null,"type":null,"city2":"Gevgelija","state2":"Gevgelija","country2":"Macedonia"},{"h3_12_4M":"8c1ec2925a711ff","lat":41.9006516,"lon":22.7327301,"hours":null,"location_details":null,"address":null,"url":null,"type":"pitlatrine","city2":"Delcevo","state2":"Delchevo","country2":"Macedonia"},{"h3_12_4M":"8c1ec295a02d3ff","lat":41.7327732,"lon":22.9340423,"hours":null,"location_details":null,"address":null,"url":null,"type":null,"city2":"Pehčevo","state2":"Pehchevo","country2":"Macedonia"},{"h3_12_4M":"8c1ec2c147ad7ff","lat":41.383338,"lon":22.2879512,"hours":null,"location_details":null,"address":null,"url":null,"type":"pitlatrine","city2":"Demir Kapija","state2":"Demir Kapija","country2":"Macedonia"},{"h3_12_4M":"8c1ec2c41a123ff","lat":41.4074446,"lon":22.6259078,"hours":null,"location_details":null,"address":null,"url":null,"type":null,"city2":"Strumica","state2":"Strumica","country2":"Macedonia"},{"h3_12_4M":"8c1ec2c68c005ff","lat":41.4450435,"lon":22.6401696,"hours":null,"location_details":null,"address":null,"url":null,"type":null,"city2":"Strumica","state2":"Strumica","country2":"Macedonia"},{"h3_12_4M":"8c1ec604eac6dff","lat":42.2187781,"lon":22.4614569,"hours":null,"location_details":null,"address":null,"url":null,"type":null,"city2":"Kriva Palanka","state2":"Kriva Palanka","country2":"Macedonia"},{"h3_12_4M":"8c1ec6050c6ddff","lat":42.203058,"lon":22.3342656,"hours":null,"location_details":null,"address":null,"url":null,"type":"flush","city2":"Kriva Palanka","state2":"Kriva Palanka","country2":"Macedonia"},{"h3_12_4M":"8c1ec6080522dff","lat":42.1040835,"lon":22.0550958,"hours":null,"location_details":null,"address":null,"url":null,"type":null,"city2":"Rankovce","state2":"Rankovce","country2":"Macedonia"},{"h3_12_4M":"8c1ec6292b231ff","lat":41.9084309,"lon":22.5382123,"hours":null,"location_details":null,"address":null,"url":null,"type":"pitlatrine","city2":"Vinica","state2":"Vinica","country2":"Macedonia"},{"h3_12_4M":"8c1ec65840353ff","lat":41.9976238,"lon":21.4946192,"hours":null,"location_details":null,"address":null,"url":null,"type":null,"city2":"Kisela Voda","state2":"Grad Skopje","country2":"Macedonia"},{"h3_12_4M":"8c1ec6589a167ff","lat":41.9602609,"lon":21.6274731,"hours":null,"location_details":null,"address":null,"url":null,"type":null,"city2":"Петровец","state2":"Petrovec","country2":"Macedonia"},{"h3_12_4M":"8c1ec6589b889ff","lat":41.961072,"lon":21.6265187,"hours":null,"location_details":null,"address":null,"url":null,"type":null,"city2":"Петровец","state2":"Petrovec","country2":"Macedonia"},{"h3_12_4M":"8c1ec6589b8b7ff","lat":41.9602599,"lon":21.626813,"hours":null,"location_details":null,"address":null,"url":null,"type":null,"city2":"Петровец","state2":"Petrovec","country2":"Macedonia"},{"h3_12_4M":"8c1ec6589b8dbff","lat":41.9614358,"lon":21.6270615,"hours":null,"location_details":null,"address":null,"url":null,"type":null,"city2":"Петровец","state2":"Petrovec","country2":"Macedonia"},{"h3_12_4M":"8c1ec659c3223ff","lat":41.9382323,"lon":21.5181573,"hours":null,"location_details":null,"address":null,"url":null,"type":"pitlatrine","city2":"Dračevo","state2":"Grad Skopje","country2":"Macedonia"},{"h3_12_4M":"8c1ec659dc529ff","lat":41.938983,"lon":21.5326318,"hours":null,"location_details":null,"address":null,"url":null,"type":"pitlatrine","city2":"Dračevo","state2":"Grad Skopje","country2":"Macedonia"},{"h3_12_4M":"8c1ec659e0523ff","lat":41.9167481,"lon":21.4960215,"hours":null,"location_details":null,"address":null,"url":null,"type":null,"city2":"Batinci","state2":"Studenichani","country2":"Macedonia"},{"h3_12_4M":"8c1ec65b016dbff","lat":42.0018448,"lon":21.4369469,"hours":null,"location_details":null,"address":null,"url":null,"type":null,"city2":"Skopje","state2":"Grad Skopje","country2":"Macedonia"},{"h3_12_4M":"8c1ec65b02de7ff","lat":41.9906128,"lon":21.4457605,"hours":null,"location_details":null,"address":null,"url":null,"type":null,"city2":"Skopje","state2":"Grad Skopje","country2":"Macedonia"},{"h3_12_4M":"8c1ec65b04181ff","lat":41.9909322,"lon":21.4238267,"hours":null,"location_details":null,"address":null,"url":null,"type":null,"city2":"Skopje","state2":"Grad Skopje","country2":"Macedonia"},{"h3_12_4M":"8c1ec65b0418dff","lat":41.991005,"lon":21.4235692,"hours":null,"location_details":null,"address":null,"url":null,"type":null,"city2":"Skopje","state2":"Grad Skopje","country2":"Macedonia"},{"h3_12_4M":"8c1ec65b04197ff","lat":41.9908365,"lon":21.4245044,"hours":null,"location_details":null,"address":null,"url":null,"type":null,"city2":"Skopje","state2":"Grad Skopje","country2":"Macedonia"},{"h3_12_4M":"8c1ec65b04e43ff","lat":41.9909311,"lon":21.4252992,"hours":null,"location_details":null,"address":null,"url":null,"type":null,"city2":"Skopje","state2":"Grad Skopje","country2":"Macedonia"},{"h3_12_4M":"8c1ec65b0a137ff","lat":42.0018986,"lon":21.4410545,"hours":null,"location_details":null,"address":null,"url":null,"type":null,"city2":"Skopje","state2":"Grad Skopje","country2":"Macedonia"},{"h3_12_4M":"8c1ec65b6a28dff","lat":42.0044633,"lon":21.4114594,"hours":null,"location_details":null,"address":null,"url":null,"type":null,"city2":"Skopje","state2":"Grad Skopje","country2":"Macedonia"},{"h3_12_4M":"8c1ec67485223ff","lat":41.9382505,"lon":22.4582788,"hours":null,"location_details":null,"address":null,"url":null,"type":"pitlatrine","city2":"Orizari","state2":"Grad Skopje","country2":"Macedonia"},{"h3_12_4M":"8c1ec674e363bff","lat":41.9415043,"lon":22.4522644,"hours":null,"location_details":null,"address":null,"url":null,"type":"pitlatrine","city2":"Orizari","state2":"Grad Skopje","country2":"Macedonia"},{"h3_12_4M":"8c1ec6cd5b743ff","lat":42.2392274,"lon":21.7030879,"hours":null,"location_details":null,"address":null,"url":null,"type":null,"city2":"Lojane","state2":"Lipkovo","country2":"Macedonia"},{"h3_12_4M":"8c1ed4aeda26bff","lat":41.5001444,"lon":20.485298,"hours":null,"location_details":null,"address":null,"url":null,"type":null,"city2":"Debar","state2":"Debar","country2":"Macedonia"},{"h3_12_4M":"8c1ed50633941ff","lat":41.3206238,"lon":21.6031041,"hours":null,"location_details":null,"address":null,"url":null,"type":"pitlatrine","city2":"Prilep","state2":"Prilep","country2":"Macedonia"},{"h3_12_4M":"8c1ed54520009ff","lat":40.9538217,"lon":21.07163,"hours":null,"location_details":null,"address":null,"url":null,"type":"flush","city2":"Krani","state2":"Resen","country2":"Macedonia"},{"h3_12_4M":"8c1ed5511006bff","lat":41.1151958,"lon":20.795504,"hours":null,"location_details":null,"address":null,"url":null,"type":null,"city2":"Ohrid","state2":"Ohrid","country2":"Macedonia"},{"h3_12_4M":"8c1ed551105ebff","lat":41.113847,"lon":20.8001048,"hours":null,"location_details":null,"address":null,"url":null,"type":null,"city2":"Ohrid","state2":"Ohrid","country2":"Macedonia"},{"h3_12_4M":"8c1ed551114adff","lat":41.1171169,"lon":20.7992211,"hours":null,"location_details":null,"address":null,"url":null,"type":null,"city2":"Ohrid","state2":"Ohrid","country2":"Macedonia"},{"h3_12_4M":"8c1ed55114655ff","lat":41.110902,"lon":20.7912234,"hours":null,"location_details":null,"address":null,"url":null,"type":null,"city2":"Ohrid","state2":"Ohrid","country2":"Macedonia"},{"h3_12_4M":"8c1ed5511b4bdff","lat":41.1227004,"lon":20.8089657,"hours":null,"location_details":null,"address":null,"url":null,"type":null,"city2":"Ohrid","state2":"Ohrid","country2":"Macedonia"},{"h3_12_4M":"8c1ed551e51d9ff","lat":41.0916876,"lon":20.8003036,"hours":null,"location_details":null,"address":null,"url":null,"type":"flush","city2":"Ohrid","state2":"Ohrid","country2":"Macedonia"},{"h3_12_4M":"8c1ed5588059bff","lat":40.9948202,"lon":20.7984652,"hours":null,"location_details":null,"address":null,"url":null,"type":"flush","city2":"Ohrid","state2":"Ohrid","country2":"Macedonia"},{"h3_12_4M":"8c1ed5635b9d7ff","lat":40.9145547,"lon":21.4180301,"hours":null,"location_details":null,"address":null,"url":null,"type":null,"city2":"Bistrica","state2":"Bitola","country2":"Macedonia"},{"h3_12_4M":"8c1ed5635ba53ff","lat":40.917094,"lon":21.4177104,"hours":null,"location_details":null,"address":null,"url":null,"type":null,"city2":"Bistrica","state2":"Bitola","country2":"Macedonia"},{"h3_12_4M":"8c1ed5706a925ff","lat":41.0115807,"lon":21.3429123,"hours":null,"location_details":null,"address":null,"url":null,"type":null,"city2":"Bitola","state2":"Bitola","country2":"Macedonia"},{"h3_12_4M":"8c1ed57234861ff","lat":41.0411517,"lon":21.3584208,"hours":null,"location_details":null,"address":null,"url":null,"type":null,"city2":"Gorno Orizari","state2":"Bitola","country2":"Macedonia"},{"h3_12_4M":"8c1ed5ac9d755ff","lat":41.4023087,"lon":22.028452,"hours":null,"location_details":null,"address":null,"url":null,"type":null,"city2":"Vataša","state2":"Kavadarci","country2":"Macedonia"},{"h3_12_4M":"8c1ed5cdbbb03ff","lat":41.2185821,"lon":20.9731715,"hours":null,"location_details":null,"address":null,"url":null,"type":"pitlatrine","city2":"Jankovec","state2":"Resen","country2":"Macedonia"},{"h3_12_4M":"8c1ef32b08949ff","lat":42.0080777,"lon":20.9859443,"hours":null,"location_details":null,"address":null,"url":null,"type":null,"city2":"Tetovo","state2":"Tetovo","country2":"Macedonia"},{"h3_12_4M":"8c1ef32c34db9ff","lat":41.9501553,"lon":21.299105,"hours":null,"location_details":null,"address":null,"url":null,"type":null,"city2":"Grčec","state2":"Grad Skopje","country2":"Macedonia"},{"h3_12_4M":"8c1ef32eb9a85ff","lat":42.007704,"lon":21.3645442,"hours":null,"location_details":null,"address":null,"url":null,"type":null,"city2":"Gjorče Petro","state2":"Grad Skopje","country2":"Macedonia"},{"h3_12_4M":"8c1ef33949731ff","lat":42.1131841,"lon":20.8836292,"hours":"24/7","location_details":null,"address":null,"url":null,"type":null,"city2":"Šipkovica","state2":"Tetovo","country2":"Macedonia"}]