[{"h3_12_4M":"8c72dcd1e68a7ff","lat":-3.6880747,"lon":142.9501836,"hours":null,"location_details":null,"address":null,"url":null,"type":null,"city2":"Ambunti","state2":"East Sepik Province","country2":"Papua New Guinea"},{"h3_12_4M":"8c72de6b35181ff","lat":-5.460207049999999,"lon":143.10263255,"hours":null,"location_details":null,"address":null,"url":null,"type":"flush","city2":"Porgera","state2":"Enga Province","country2":"Papua New Guinea"},{"h3_12_4M":"8c7799ca40919ff","lat":-3.127567,"lon":152.64495725,"hours":null,"location_details":null,"address":null,"url":null,"type":"flush","city2":"Rabaul","state2":"East New Britain Province","country2":"Papua New Guinea"},{"h3_12_4M":"8c9c8a74e1287ff","lat":-6.1790835,"lon":145.4133029,"hours":null,"location_details":null,"address":null,"url":null,"type":null,"city2":"Goroka","state2":"Eastern Highlands Province","country2":"Papua New Guinea"},{"h3_12_4M":"8c9c8a74e12abff","lat":-6.1789178,"lon":145.4133733,"hours":null,"location_details":null,"address":null,"url":null,"type":null,"city2":"Goroka","state2":"Eastern Highlands Province","country2":"Papua New Guinea"},{"h3_12_4M":"8c9ca60a16a67ff","lat":-10.3094869,"lon":150.3388381,"hours":null,"location_details":null,"address":null,"url":null,"type":null,"city2":"Alotau","state2":"Milne Bay Province","country2":"Papua New Guinea"},{"h3_12_4M":"8c9d9bb026c17ff","lat":-10.5960304,"lon":151.2042036,"hours":null,"location_details":null,"address":null,"url":null,"type":null,"city2":"Samarai","state2":"Milne Bay Province","country2":"Papua New Guinea"},{"h3_12_4M":"8c9d9bb189203ff","lat":-10.584354,"lon":151.1866831,"hours":null,"location_details":null,"address":null,"url":null,"type":null,"city2":"Samarai","state2":"Milne Bay Province","country2":"Papua New Guinea"},{"h3_12_4M":"8c9d9bb189223ff","lat":-10.5840161,"lon":151.1868635,"hours":null,"location_details":null,"address":null,"url":null,"type":null,"city2":"Samarai","state2":"Milne Bay Province","country2":"Papua New Guinea"},{"h3_12_4M":"8c9d9bb1c29abff","lat":-10.584176,"lon":151.188153,"hours":null,"location_details":null,"address":null,"url":null,"type":null,"city2":"Samarai","state2":"Milne Bay Province","country2":"Papua New Guinea"}]