[{"h3_12_4M":"8c5f5820a0839ff","lat":10.6023736,"lon":-61.3413614,"hours":null,"location_details":null,"address":"Aeropuerto Internacional de Piarco","url":null,"type":null,"city2":"Arouca","state2":"Tunapuna/Piarco","country2":"Trinidad and Tobago"},{"h3_12_4M":"8c5f5820a0b25ff","lat":10.6016181,"lon":-61.3400527,"hours":null,"location_details":null,"address":"Aeropuerto Internacional de Piarco","url":null,"type":null,"city2":"Arouca","state2":"Tunapuna/Piarco","country2":"Trinidad and Tobago"},{"h3_12_4M":"8c5f5820a3b4dff","lat":10.6035756,"lon":-61.3455792,"hours":null,"location_details":null,"address":null,"url":null,"type":"flush","city2":"Arouca","state2":"Tunapuna/Piarco","country2":"Trinidad and Tobago"},{"h3_12_4M":"8c5f5820a54a9ff","lat":10.6015761,"lon":-61.3391133,"hours":null,"location_details":null,"address":"Aeropuerto Internacional de Piarco","url":null,"type":null,"city2":"Arouca","state2":"Tunapuna/Piarco","country2":"Trinidad and Tobago"},{"h3_12_4M":"8c5f5820a56e7ff","lat":10.6004614,"lon":-61.3394797,"hours":null,"location_details":null,"address":null,"url":null,"type":null,"city2":"Arouca","state2":"Tunapuna/Piarco","country2":"Trinidad and Tobago"},{"h3_12_4M":"8c5f58242472dff","lat":10.6308785,"lon":-61.4270579,"hours":null,"location_details":null,"address":null,"url":null,"type":null,"city2":"Tunapuna","state2":"Tunapuna/Piarco","country2":"Trinidad and Tobago"},{"h3_12_4M":"8c5f582424765ff","lat":10.6305324,"lon":-61.4270234,"hours":null,"location_details":null,"address":null,"url":null,"type":null,"city2":"Tunapuna","state2":"Tunapuna/Piarco","country2":"Trinidad and Tobago"},{"h3_12_4M":"8c5f5824d0403ff","lat":10.6477659,"lon":-61.5080823,"hours":null,"location_details":null,"address":null,"url":null,"type":"flush","city2":"Laventille","state2":"San Juan/Laventille","country2":"Trinidad and Tobago"},{"h3_12_4M":"8c5f582c08d53ff","lat":10.6922197,"lon":-61.3234891,"hours":null,"location_details":null,"address":null,"url":null,"type":null,"city2":"Paradise","state2":"Tunapuna/Piarco","country2":"Trinidad and Tobago"},{"h3_12_4M":"8c5f582e5c805ff","lat":10.6273501,"lon":-61.3529108,"hours":null,"location_details":null,"address":null,"url":null,"type":null,"city2":"Arouca","state2":"Tunapuna/Piarco","country2":"Trinidad and Tobago"},{"h3_12_4M":"8c5f582e5c861ff","lat":10.6271825,"lon":-61.3527912,"hours":null,"location_details":null,"address":null,"url":null,"type":null,"city2":"Arouca","state2":"Tunapuna/Piarco","country2":"Trinidad and Tobago"},{"h3_12_4M":"8c5f582e5c909ff","lat":10.627368,"lon":-61.3521053,"hours":null,"location_details":null,"address":null,"url":null,"type":null,"city2":"Arouca","state2":"Tunapuna/Piarco","country2":"Trinidad and Tobago"},{"h3_12_4M":"8c5f582e5caadff","lat":10.6272386,"lon":-61.3537182,"hours":null,"location_details":null,"address":null,"url":null,"type":null,"city2":"Arouca","state2":"Tunapuna/Piarco","country2":"Trinidad and Tobago"},{"h3_12_4M":"8c5f582e5d8dbff","lat":10.6247974,"lon":-61.3545759,"hours":null,"location_details":null,"address":null,"url":null,"type":null,"city2":"Arouca","state2":"Tunapuna/Piarco","country2":"Trinidad and Tobago"},{"h3_12_4M":"8c5f587709667ff","lat":10.5078085,"lon":-61.0433816,"hours":null,"location_details":"Manzanilla Beach Facilities","address":null,"url":null,"type":null,"city2":"Sangre Grande","state2":"Sangre Grande Regional Corporation","country2":"Trinidad and Tobago"},{"h3_12_4M":"8c5f595900c93ff","lat":10.7824645,"lon":-61.3912145,"hours":null,"location_details":null,"address":null,"url":null,"type":null,"city2":"Tunapuna","state2":"Tunapuna/Piarco","country2":"Trinidad and Tobago"},{"h3_12_4M":"8c5f5b526745bff","lat":11.1872016,"lon":-60.6597229,"hours":null,"location_details":null,"address":null,"url":null,"type":"flush","city2":"Scarborough","state2":"Tobago","country2":"Trinidad and Tobago"}]